City_ID,City,Lat,Lng,Max Temp,Humidity,Cloudiness,Wind Speed,Country,Date
0,waitangi,-43.9535,-176.5597,9.34,96,100,1.34,NZ,1689533557
1,udachny,66.4167,112.4,11.36,53,99,3.34,RU,1689533587
2,adamstown,-25.066,-130.1015,20.79,79,100,3.15,PN,1689533557
3,blackmans bay,-43.0167,147.3167,12.07,64,40,5.78,AU,1689533733
4,saucillo,28.0167,-105.2833,35.1,21,2,2.11,MX,1689533733
5,hithadhoo,-0.6,73.0833,27.43,76,1,0.69,MV,1689533686
6,atafu village,-8.5421,-172.5159,28.6,74,96,6.68,TK,1689533733
7,merizo village,13.2658,144.6691,26.31,95,98,5.52,GU,1689533734
8,bredasdorp,-34.5322,20.0403,13.63,82,100,2.7,ZA,1689533534
9,constantia,44.1833,28.65,24.38,67,0,4.7,RO,1689533576
10,wailua homesteads,22.0669,-159.378,25.44,75,75,7.2,US,1689533734
11,grytviken,-54.2811,-36.5092,-5.78,69,19,2.25,GS,1689533545
12,punta arenas,-53.15,-70.9167,4.06,81,75,5.14,CL,1689533734
13,calvinia,-31.4707,19.776,12.26,57,100,1.02,ZA,1689533734
14,port-aux-francais,-49.35,70.2167,2.0,54,92,12.92,TF,1689533525
15,college,64.8569,-147.8028,18.93,73,100,1.54,US,1689533617
16,whitehorse,60.7161,-135.0538,22.28,42,20,6.17,CA,1689533553
17,winsted,41.9212,-73.0601,24.38,97,100,0.45,US,1689533735
18,oroqen zizhiqi,50.5667,123.7167,15.13,78,46,1.04,CN,1689533735
19,egbe,8.2167,5.5167,23.58,92,98,1.17,NG,1689533735
20,sur,22.5667,59.5289,31.98,57,56,4.59,OM,1689533735
21,aktobe,50.2797,57.2072,19.05,63,40,6.0,KZ,1689533735
22,moose jaw,50.4001,-105.5344,20.14,52,100,3.6,CA,1689533735
23,hawaiian paradise park,19.5933,-154.9731,26.13,90,75,2.57,US,1689533530
24,margaret river,-33.95,115.0667,15.69,80,62,6.64,AU,1689533735
25,bethel,41.3712,-73.414,25.47,88,100,2.86,US,1689533316
26,aqsay,51.1678,52.995,15.95,84,100,7.27,KZ,1689533736
27,avarua,-21.2078,-159.775,22.03,73,100,1.54,CK,1689533578
28,ushuaia,-54.8,-68.3,4.81,65,40,1.03,AR,1689533565
29,katsuura,35.1333,140.3,24.39,93,100,2.87,JP,1689533663
30,rameswaram,9.2833,79.3,28.79,82,84,5.23,IN,1689533736
31,iqaluit,63.7506,-68.5145,8.85,93,100,2.06,CA,1689533598
32,edinburgh of the seven seas,-37.0676,-12.3116,13.01,78,10,13.04,SH,1689533525
33,sos'va,59.1766,61.8558,13.39,73,58,2.22,RU,1689533736
34,hermanus,-34.4187,19.2345,11.56,87,100,3.74,ZA,1689533737
35,dryden,49.7833,-92.7503,15.16,94,100,1.54,CA,1689533737
36,lebu,-37.6167,-73.65,9.7,63,100,7.32,CL,1689533650
37,saldanha,-33.0117,17.9442,13.03,90,100,2.6,ZA,1689533549
38,stanley,54.868,-1.6985,16.77,70,20,7.2,GB,1689533561
39,callao,-12.0667,-77.15,23.16,64,100,4.63,PE,1689533509
40,new norfolk,-42.7826,147.0587,12.73,67,90,4.88,AU,1689533737
41,koungheul,13.9833,-14.8,30.59,62,100,2.1,SN,1689533737
42,puerto natales,-51.7236,-72.4875,6.25,56,75,8.75,CL,1689533538
43,jamestown,42.097,-79.2353,27.79,61,75,4.12,US,1689533608
44,polyarnyy,69.1989,33.4478,13.72,83,92,1.34,RU,1689533738
45,byron bay,-28.65,153.6167,13.17,88,38,4.03,AU,1689533725
46,talnakh,69.4865,88.3972,5.67,91,100,1.23,RU,1689533708
47,howrah,22.5892,88.3103,28.0,94,40,2.57,IN,1689533685
48,tolanaro,-25.0319,46.9987,22.04,68,20,8.23,MG,1689533569
49,lompoc,34.6391,-120.4579,32.08,70,0,3.09,US,1689533702
50,upata,8.0086,-62.3989,31.22,37,92,2.44,VE,1689533738
51,crane,31.3974,-102.3501,36.41,19,34,5.24,US,1689533739
52,east london,-33.0153,27.9116,12.52,87,0,2.06,ZA,1689533739
53,dzuunharaa,48.8523,106.4579,16.01,87,57,2.1,MN,1689533739
54,san antonio de pale,-1.4014,5.6325,23.06,81,5,5.14,GQ,1689533530
55,praia da vitoria,38.7333,-27.0667,23.2,73,75,5.9,PT,1689533549
56,ribeira grande,38.5167,-28.7,23.22,64,40,5.66,PT,1689533575
57,al jawf,29.5,38.75,34.16,11,5,3.57,SA,1689533606
58,fria,10.4167,-13.5833,26.23,95,100,1.87,GN,1689533739
59,laguna,38.421,-121.4238,41.71,32,0,0.45,US,1689533687
60,papatowai,-46.5619,169.4708,9.53,80,44,7.12,NZ,1689533608
61,skhira,34.2992,10.07,38.82,44,0,4.55,TN,1689533740
62,bardai,11.65,7.2333,29.17,47,9,2.62,NG,1689533740
63,suva,-18.1416,178.4415,20.71,94,75,3.09,FJ,1689533740
64,nuuk,64.1835,-51.7216,9.34,100,100,1.54,GL,1689533740
65,invercargill,-46.4,168.35,8.31,88,53,6.13,NZ,1689533260
66,longyearbyen,78.2186,15.6401,9.91,81,0,5.66,SJ,1689533650
67,kingaroy,-26.5333,151.8333,13.26,88,99,2.1,AU,1689533740
68,vorkuta,67.5,64.0,14.03,90,72,2.41,RU,1689533740
69,worcester,42.3334,-71.8328,24.75,97,100,5.66,US,1689533741
70,las khorey,11.1595,48.1967,31.94,56,17,4.2,SO,1689533741
71,valparaiso,-33.0393,-71.6273,18.13,62,0,5.14,CL,1689533658
72,san patricio,28.017,-97.5169,38.98,30,30,6.85,US,1689533741
73,minas de marcona,-15.2119,-75.1103,18.19,56,12,5.15,PE,1689533741
74,mori,34.8333,137.9333,24.13,94,25,0.78,JP,1689533741
75,touros,-5.1989,-35.4608,27.45,68,15,7.66,BR,1689533581
76,saint-philippe,-21.3585,55.7679,21.77,86,45,6.18,RE,1689533574
77,nieuw amsterdam,5.8833,-55.0833,33.34,62,40,1.03,SR,1689533741
78,egilsstadir,65.2653,-14.3948,7.95,87,75,1.54,IS,1689533742
79,itamaraca,-7.7478,-34.8256,23.03,81,25,5.37,BR,1689533658
80,ratnagiri,16.9833,73.3,26.41,86,100,3.37,IN,1689533469
81,afaahiti,-17.75,-149.2833,24.93,64,5,1.97,PF,1689533541
82,chonchi,-42.6128,-73.8092,7.84,61,6,2.04,CL,1689533638
83,nikolayevsk-on-amure,53.1406,140.73,12.83,86,100,1.39,RU,1689533616
84,bamboo flat,11.7,92.7167,28.05,83,75,6.17,IN,1689533742
85,chernyshevsk,52.5243,117.0174,16.9,65,1,0.44,RU,1689533742
86,west island,-12.1568,96.8225,24.99,69,75,4.63,CC,1689533537
87,kharp,66.8014,65.8081,17.05,69,86,2.08,RU,1689533743
88,sept-iles,50.2001,-66.3821,20.59,92,100,5.14,CA,1689533521
89,bereznik,62.8551,42.7072,18.58,67,96,1.49,RU,1689533743
90,kruisfontein,-34.0033,24.7314,13.45,56,26,2.07,ZA,1689533599
91,nova vicosa,-17.8919,-39.3719,24.32,71,80,3.67,BR,1689533743
92,anadarko,35.0726,-98.2437,31.45,47,1,3.97,US,1689533743
93,auxerre,47.8,3.5667,22.02,35,8,5.34,FR,1689533743
94,happy valley-goose bay,53.3168,-60.3315,27.17,50,75,4.12,CA,1689533563
95,port elizabeth,-33.918,25.5701,15.16,82,0,3.09,ZA,1689533698
96,male,4.1748,73.5089,27.97,83,75,4.12,MV,1689533744
97,kupiskis,55.8333,24.9667,20.33,88,100,6.21,LT,1689533744
98,okhotsk,59.3833,143.3,13.97,90,100,0.87,RU,1689533744
99,loen,7.7601,168.2307,28.05,72,87,6.64,MH,1689533744
100,lubang,13.8584,120.124,28.35,82,100,12.62,PH,1689533744
101,garissa,-0.4536,39.6401,24.61,63,99,9.62,KE,1689533745
102,puerto ayora,-0.7393,-90.3518,29.98,88,60,3.13,EC,1689533745
103,nadym,65.5333,72.5167,13.03,64,14,5.59,RU,1689533745
104,richards bay,-28.783,32.0377,17.93,85,0,1.94,ZA,1689533745
105,klyuchi,52.2667,79.1667,15.86,78,9,3.69,RU,1689533669
106,mahina,-17.5065,-149.489,25.87,65,20,3.09,PF,1689533746
107,saipan,15.1355,145.701,28.14,100,0,4.12,MP,1689533615
108,bodaybo,57.8506,114.1933,13.87,83,0,1.28,RU,1689533747
109,yellowknife,62.456,-114.3525,21.29,52,100,6.17,CA,1689533571
110,marquette,46.5333,-87.6335,21.69,70,98,2.47,US,1689533747
111,kyzyl,51.7,94.45,16.36,77,4,2.39,RU,1689533717
112,amos,48.5669,-78.1162,26.53,46,30,1.21,CA,1689533745
113,upington,-28.4478,21.2561,17.21,25,0,2.06,ZA,1689533748
114,padang,-0.9492,100.3543,24.03,88,53,1.57,ID,1689533600
115,taulaga,-11.0553,-171.0883,28.04,74,45,6.98,AS,1689533748
116,sao gabriel da cachoeira,-0.1303,-67.0892,28.25,85,35,1.46,BR,1689533748
117,abu zabad,12.35,29.25,30.48,47,6,4.08,SD,1689533748
118,tiksi,71.6872,128.8694,4.66,93,100,2.59,RU,1689533691
119,iskateley,67.6803,53.1512,16.0,84,36,4.06,RU,1689533564
120,qaqortoq,60.7167,-46.0333,6.4,93,100,2.1,GL,1689533560
121,port blair,11.6667,92.75,28.02,83,75,6.17,IN,1689533749
122,mo i rana,66.3128,14.1428,15.74,92,75,3.13,NO,1689533749
123,undurkhaan,47.3194,110.6556,20.13,42,78,2.32,MN,1689533749
124,olonkinbyen,70.9221,-8.7187,4.23,96,100,9.94,SJ,1689533571
125,wenchang,30.904,118.4887,23.21,98,100,1.83,CN,1689533749
126,sutherlin,43.3901,-123.3126,29.48,32,0,3.6,US,1689533749
127,kailua-kona,19.6406,-155.9956,27.38,78,40,3.09,US,1689533749
128,fortuna,40.5982,-124.1573,16.48,91,100,5.14,US,1689533749
129,lihue,21.9789,-159.3672,25.77,71,75,7.2,US,1689533553
130,jayapura,-2.5333,140.7,23.66,92,100,1.73,ID,1689533750
131,bandarbeyla,9.4942,50.8122,24.08,84,92,14.16,SO,1689533750
132,weno,7.4515,151.8468,27.97,89,75,3.6,FM,1689533750
133,shalya,57.2471,58.7298,11.26,98,82,2.43,RU,1689533623
134,broken hill,-31.95,141.4333,6.45,63,1,4.09,AU,1689533750
135,dudinka,69.4058,86.1778,5.9,80,99,3.49,RU,1689533550
136,coquimbo,-29.9533,-71.3436,15.85,77,0,3.09,CL,1689533516
137,port alfred,-33.5906,26.891,16.74,54,53,3.59,ZA,1689533751
138,maua,-23.6678,-46.4614,24.89,39,35,2.48,BR,1689533751
139,ungsang-nodongjagu,42.3578,130.4622,16.84,98,100,2.26,KP,1689533751
140,dunedin,-45.8742,170.5036,8.78,53,10,0.89,NZ,1689533657
141,sinazongwe,-17.2614,27.4618,17.95,49,0,2.12,ZM,1689533751
142,tucumcari,35.1717,-103.725,29.97,51,0,6.17,US,1689533751
143,banamba,13.55,-7.45,31.61,40,100,3.59,ML,1689533752
144,albany,42.6001,-73.9662,27.23,79,100,2.3,US,1689533550
145,lodwar,3.1191,35.5973,29.63,37,74,2.88,KE,1689533752
146,port lincoln,-34.7333,135.8667,8.73,73,0,3.09,AU,1689533597
147,riyadh,24.6877,46.7219,38.08,7,16,4.59,SA,1689533753
148,jiangkou,25.4872,119.1986,25.83,93,100,2.45,CN,1689533753
149,port mathurin,-19.6833,63.4167,23.26,73,0,12.27,MU,1689533753
150,kudahuvadhoo,2.6708,72.8944,28.09,76,27,4.65,MV,1689533753
151,mana,5.6592,-53.7767,28.54,77,9,5.18,GF,1689533753
152,saint croix,17.7397,-64.7388,28.25,84,40,5.66,VI,1689533753
153,flying fish cove,-10.4217,105.6791,23.82,88,100,5.66,CX,1689533544
154,narrabri,-30.3167,149.7833,10.85,81,76,0.45,AU,1689533754
155,seabra,-12.4186,-41.7703,27.3,37,7,5.2,BR,1689533754
156,choyr,46.3611,108.3611,19.98,40,46,4.92,MN,1689533754
157,haiku-pauwela,20.9219,-156.3051,26.76,63,40,5.14,US,1689533563
158,uturoa,-16.7333,-151.4333,25.67,67,1,3.74,PF,1689533552
159,namibe,-15.1961,12.1522,19.38,83,0,2.0,AO,1689533754
160,flin flon,54.7682,-101.865,17.91,68,75,3.6,CA,1689533754
161,campoverde,-8.4753,-74.8058,26.83,48,63,1.13,PE,1689533754
162,dadukou,26.5479,101.7054,20.72,65,1,0.15,CN,1689533755
163,rio grande,-32.035,-52.0986,16.06,61,8,5.78,BR,1689533550
164,fale old settlement,-9.3852,-171.2468,28.39,75,25,6.87,TK,1689533533
165,camarinas,43.1311,-9.1817,21.07,68,0,4.16,ES,1689533755
166,saint augustine beach,29.8505,-81.2654,31.0,74,40,2.57,US,1689533477
167,sangaree,33.0355,-80.1279,35.41,61,20,4.12,US,1689533755
168,mar del plata,-38.0023,-57.5575,10.53,78,75,7.6,AR,1689533755
169,prado,-17.3411,-39.2208,24.08,71,9,2.8,BR,1689533755
170,melur,10.05,78.3333,26.9,67,100,1.49,IN,1689533756
171,imbituba,-28.24,-48.6703,19.92,75,5,3.65,BR,1689533756
172,utrik,11.2278,169.8474,27.69,80,53,6.97,MH,1689533723
173,lazaro cardenas,17.9583,-102.2,31.71,67,56,3.33,MX,1689533756
174,labrador city,52.9463,-66.9114,23.95,53,40,3.6,CA,1689533756
175,ayaviri,-14.8864,-70.5889,16.62,16,3,1.21,PE,1689533756
176,isafjordur,66.0755,-23.124,10.02,71,0,6.69,IS,1689533697
177,lamu,-2.2717,40.902,25.12,80,94,6.55,KE,1689533658
178,parvatsar,26.8833,74.7667,28.48,68,72,2.78,IN,1689533756
179,mkushi,-13.6202,29.3939,12.47,63,0,2.65,ZM,1689533757
180,east ballina,-28.8667,153.5833,13.22,83,41,3.76,AU,1689533757
181,rosarito,32.3333,-117.0333,29.79,70,80,3.76,MX,1689533757
182,la'ie,21.6477,-157.9253,26.35,78,9,2.68,US,1689533661
183,hasaki,35.7333,140.8333,25.22,87,75,1.58,JP,1689533599
184,mount gambier,-37.8333,140.7667,6.58,88,67,3.08,AU,1689533757
185,vercelli,45.3231,8.4153,30.55,84,21,1.6,IT,1689533757
186,bulolo,-7.2,146.65,21.59,97,99,0.41,PG,1689533757
187,aykhal,66.0,111.5,9.59,58,100,3.25,RU,1689533667
188,lakatoro,-16.0999,167.4164,24.32,82,90,9.59,VU,1689533758
189,bilibino,68.0546,166.4372,22.5,42,11,1.16,RU,1689533573
190,havre,49.5833,0.3333,16.87,72,0,5.66,FR,1689533758
191,aasiaat,68.7098,-52.8699,2.74,93,100,1.02,GL,1689533556
192,sitka,57.0531,-135.33,14.94,88,100,1.54,US,1689533547
193,baltasi,56.3462,50.2062,16.48,67,89,3.29,RU,1689533758
194,pacasmayo,-7.4006,-79.5714,24.8,70,28,6.79,PE,1689533561
195,kristiansund,63.1115,7.732,18.03,77,75,7.72,NO,1689533758
196,saint-joseph,-21.3667,55.6167,21.37,83,29,6.4,RE,1689533758
197,norton shores,43.1689,-86.2639,25.29,62,40,4.63,US,1689533750
198,enewetak,11.3474,162.3373,28.06,79,72,7.38,MH,1689533721
199,midvagur,62.0511,-7.1939,9.46,81,100,7.2,FO,1689533759
200,tsiombe,-25.3,45.4833,18.39,70,0,0.67,MG,1689533703
201,keflavik,64.0049,-22.5624,14.95,58,0,8.75,IS,1689533359
202,jiutai,44.1525,125.8328,19.19,97,100,2.0,CN,1689533760
203,seven pagodas,12.6264,80.1722,30.03,73,100,6.06,IN,1689533760
204,hamilton,39.1834,-84.5333,30.12,59,0,4.12,US,1689533095
205,tsengel,49.4783,100.8894,16.0,71,58,0.47,MN,1689533760
206,cockburn town,21.4612,-71.1419,28.55,80,4,7.11,TC,1689533760
207,mandan,46.8267,-100.8896,21.99,55,40,6.17,US,1689533200
208,chibougamau,49.9168,-74.3659,21.79,78,100,4.63,CA,1689533762
209,qaisumah,28.3112,46.1273,38.98,7,0,2.06,SA,1689533762
210,qoryooley,1.7878,44.53,23.85,82,43,5.69,SO,1689533639
211,vallenar,-28.5708,-70.7581,25.79,12,100,2.67,CL,1689533762
212,kiunga,-6.1219,141.2906,21.77,95,100,0.5,PG,1689533763
213,berdigestyakh,62.0989,126.6992,5.99,81,7,0.68,RU,1689533763
214,bocas del toro,9.3333,-82.25,26.23,87,100,4.47,PA,1689533763
215,petropavlovsk-kamchatsky,53.0452,158.6483,9.33,100,75,1.0,RU,1689533714
216,labuan,5.2767,115.2417,26.2,88,20,0.0,MY,1689533763
217,ta`u,-14.2336,-169.5144,26.28,81,77,7.56,AS,1689533688
218,san carlos del zulia,9.0,-71.9135,34.27,49,30,0.57,VE,1689533764
219,ambovombe,-25.1667,46.0833,19.03,67,0,1.76,MG,1689533764
220,badger,64.8,-147.5333,18.88,72,100,1.54,US,1689533611
221,kendari,-3.945,122.4989,22.54,95,100,1.75,ID,1689533764
222,ebon,4.582,168.6964,28.0,77,100,5.04,MH,1689533764
223,hadibu,12.65,54.0333,25.66,79,93,7.4,YE,1689533764
224,labytnangi,66.6572,66.4183,17.06,70,77,3.69,RU,1689533672
225,port kembla,-34.4667,150.9,12.97,85,36,1.77,AU,1689533764
226,puerto baquerizo moreno,-0.9,-89.6,28.55,70,40,6.17,EC,1689533765
227,mohammedia,33.7066,-7.3944,26.11,73,20,6.69,MA,1689533765
228,dzhankoy,45.7167,34.4,21.75,51,0,3.06,UA,1689533765
229,mount pearl,47.5166,-52.7813,25.81,65,75,7.2,CA,1689533535
230,fada,9.5667,8.3,22.74,83,33,1.57,NG,1689533765
231,kamen'-rybolov,44.7481,132.0403,15.55,98,88,4.09,RU,1689533766
232,thompson,55.7435,-97.8558,15.09,63,100,3.09,CA,1689533678
233,igarka,67.4667,86.5833,4.29,81,51,2.8,RU,1689533679
234,fort bragg,35.139,-79.006,33.84,55,0,5.14,US,1689533651
235,hilo,19.7297,-155.09,27.38,84,75,2.57,US,1689533667
236,colonia,50.9333,6.95,23.79,43,0,5.14,DE,1689533615
237,tilcara,-23.5776,-65.3509,13.63,14,31,2.04,AR,1689533766
238,smara,26.7384,-11.6719,27.37,46,0,9.65,EH,1689533767
239,christchurch,-43.5333,172.6333,6.93,90,20,1.03,NZ,1689533155
240,georgetown,5.4112,100.3354,27.96,82,20,0.51,MY,1689533565
241,quellon,-43.1167,-73.6167,7.14,70,40,2.57,CL,1689533620
242,sheridan,44.8333,-106.9173,31.84,34,0,1.54,US,1689533767
243,tasgaon,17.0333,74.6,23.15,84,100,5.55,IN,1689533767
244,extrema,-22.8547,-46.3183,23.01,45,35,3.21,BR,1689533768
245,guasdualito,7.2424,-70.7324,30.98,66,40,1.03,VE,1689533768
246,tromso,69.6496,18.957,16.01,77,75,6.69,NO,1689533741
247,tidjikja,18.5564,-11.4271,33.87,30,100,6.39,MR,1689533769
248,patrocinio,-18.9439,-46.9925,19.87,71,98,3.06,BR,1689533770
249,saint-louis,16.3333,-15.0,35.8,47,100,8.44,SN,1689533770
250,astrakhan,46.3497,48.0408,23.93,46,0,3.0,RU,1689533677
251,pokhara,28.2333,83.9833,23.17,91,100,0.69,NP,1689533540
252,ilulissat,69.2167,-51.1,4.01,100,100,2.06,GL,1689533658
253,east moriches,40.8051,-72.7609,26.26,96,100,3.09,US,1689533771
254,newman,37.3138,-121.0208,37.19,11,100,0.51,US,1689533705
255,mpika,-11.8343,31.4529,11.64,64,3,1.6,ZM,1689533771
256,hailey,43.5196,-114.3153,32.11,28,0,2.24,US,1689533771
257,balqash,46.8481,74.995,24.84,39,0,2.45,KZ,1689533771
258,starobesheve,47.7504,38.0305,18.32,60,0,2.64,UA,1689533772
259,puerto armuelles,8.2833,-82.8667,30.99,84,100,1.34,PA,1689533772
260,chulakkurgan,43.765,69.1814,26.73,26,0,1.76,KZ,1689533772
261,kingston,17.997,-76.7936,32.91,72,20,10.29,JM,1689533646
262,at taj,24.2049,23.2857,31.91,15,78,3.94,LY,1689533623
263,arkhangel'sk,64.5401,40.5433,16.33,75,77,0.96,RU,1689533772
264,amga,60.8953,131.9608,9.32,98,20,0.57,RU,1689533582
265,pandan,14.0453,124.1694,26.83,83,100,4.2,PH,1689533725
266,totness,5.8833,-56.3167,29.76,67,50,4.66,SR,1689533773
267,ugoofaaru,5.6667,73.0,28.31,77,11,6.89,MV,1689533773
268,talodi,10.6325,30.3797,26.5,61,11,1.57,SD,1689533773
269,the dalles,45.5946,-121.1787,36.44,30,0,8.75,US,1689533577
270,remire-montjoly,4.9167,-52.2667,28.02,83,75,3.09,GF,1689533691
271,oliver,49.1831,-119.5524,31.14,23,6,1.03,CA,1689533773
272,makinsk,52.6292,70.4169,15.79,83,92,3.26,KZ,1689533774
273,carloforte,39.145,8.3058,26.64,75,64,4.59,IT,1689533774
274,nantucket,41.2835,-70.0995,26.72,89,100,7.2,US,1689533505
275,neiafu,-18.65,-173.9833,22.38,78,75,4.12,TO,1689533774
276,nagqu,31.5,92.0,2.82,85,0,1.19,CN,1689533601
277,bulayevo,54.9056,70.4439,15.13,85,91,1.82,KZ,1689533774
278,dalnerechensk,45.9339,133.7225,17.22,96,100,1.95,RU,1689533775
279,karratha,-20.7377,116.8463,17.95,34,2,4.74,AU,1689533567
280,palmer,42.1584,-72.3287,25.08,85,100,4.63,US,1689533717
281,baukau,51.5526,7.2042,22.94,55,87,2.24,DE,1689533775
282,shakhovskaya,56.0283,35.5097,16.47,77,27,0.92,RU,1689533775
283,alofi,-19.0595,-169.9187,19.94,94,100,3.6,NU,1689533666
284,brookings,44.3114,-96.7984,22.81,65,0,6.17,US,1689533777
285,luanda,-8.8368,13.2343,21.0,88,40,4.12,AO,1689533777
286,portland,45.5234,-122.6762,30.55,44,99,2.68,US,1689533151
287,garla-mare,44.2092,22.775,26.74,57,0,1.9,RO,1689533778
288,mili,6.0815,171.735,27.8,72,60,6.31,MH,1689533610
289,bel ombre,-4.6167,55.4167,25.91,83,40,4.12,SC,1689533778
290,rio preto da eva,-2.6994,-59.6997,35.62,33,99,2.39,BR,1689533778
291,tralee,52.2704,-9.7026,13.56,88,98,5.54,IE,1689533566
292,salinas,36.6777,-121.6555,32.52,64,0,5.66,US,1689533558
293,djambala,-2.5447,14.7533,28.31,39,99,1.06,CG,1689533778
294,nangavalli,11.75,77.8833,25.89,76,100,0.49,IN,1689533779
295,mossel bay,-34.1831,22.146,10.96,76,100,0.22,ZA,1689533779
296,bure,10.7,37.0667,14.69,99,100,0.38,ET,1689533779
297,puerto carreno,6.189,-67.4859,30.99,66,40,2.06,CO,1689533779
298,xilin hot,43.9667,116.0333,18.03,53,0,2.47,CN,1689533779
299,st. john's,47.5649,-52.7093,26.27,65,75,7.2,CA,1689533779
300,hinton,53.4001,-117.5857,25.31,37,64,2.16,CA,1689533779
301,bikenibeu village,1.3673,173.1241,27.98,78,20,2.06,KI,1689533780
302,trenggalek,-8.05,111.7167,21.22,95,43,0.81,ID,1689533536
303,sao jose da coroa grande,-8.8978,-35.1478,25.62,78,14,4.94,BR,1689533780
304,san jorge,-31.8962,-61.8598,13.8,37,13,3.17,AR,1689533599
305,juan griego,11.0817,-63.9655,29.74,69,24,7.05,VE,1689533781
306,timimoun,29.2639,0.231,43.21,5,0,5.66,DZ,1689533722
307,palpa,-14.5336,-75.1856,27.46,37,15,3.43,PE,1689533781
308,morehead city,34.7229,-76.726,32.79,83,0,9.26,US,1689533782
309,anak,38.5108,125.4942,20.84,93,100,0.44,KP,1689533782
310,baiyin,36.5583,104.2081,22.12,38,4,2.14,CN,1689533514
311,kikwit,-5.041,18.8162,27.79,25,4,1.68,CD,1689533731
312,taltal,-25.4,-70.4833,18.24,71,100,2.4,CL,1689533421
313,crailsheim,49.1344,10.0719,24.32,56,0,1.94,DE,1689533782
314,puerto lempira,15.2667,-83.7667,32.08,66,75,3.6,HN,1689533782
315,santo antonio do leverger,-15.8656,-56.0767,34.21,19,2,1.88,BR,1689533595
316,eydhafushi,5.1033,73.0708,28.37,77,8,6.37,MV,1689533783
317,tazovsky,67.4667,78.7,6.2,60,0,3.38,RU,1689533562
318,olinda,-8.0089,-34.8553,22.85,94,75,3.09,BR,1689533783
319,nova sintra,14.8667,-24.7167,23.1,84,100,3.33,CV,1689533657
320,dalandzadgad,43.5708,104.425,24.66,25,82,4.1,MN,1689533783
321,argo,37.6333,22.7333,31.55,46,0,1.82,GR,1689533578
322,agadez,19.75,10.25,33.95,8,67,2.91,NE,1689533784
323,posse,-14.0931,-46.3694,31.55,24,72,2.02,BR,1689533784
324,danville,36.586,-79.395,32.97,60,75,3.09,US,1689533646
325,tura,25.5198,90.2201,24.65,90,100,2.14,IN,1689533563
326,phan rang-thap cham,11.5667,108.9833,26.57,75,100,3.3,VN,1689533784
327,sarykemer,43.0,71.5,27.71,25,5,1.26,KZ,1689533785
328,narvik,68.4384,17.4272,16.67,89,100,2.92,NO,1689533785
329,waingapu,-9.6567,120.2641,22.17,85,100,3.97,ID,1689533785
330,arteche,12.2645,125.4048,25.2,88,52,2.03,PH,1689533785
331,gunnison,38.7,-107.0673,24.39,8,0,2.87,US,1689533785
332,mil'kovo,55.6078,37.7956,19.73,69,49,2.09,RU,1689533659
333,sogndal,61.2283,7.1003,17.21,72,75,2.06,NO,1689533785
334,i-n-salah,27.1935,2.4607,39.32,5,0,4.72,DZ,1689533615
335,fukuecho,32.6881,128.8419,26.75,90,0,7.08,JP,1689533786
336,huazhou,21.6333,110.5833,25.91,91,100,2.89,CN,1689533786
337,sinabang,2.4803,96.3801,26.07,84,39,1.73,ID,1689533757
338,belmonte,-15.8631,-38.8828,23.42,87,32,3.67,BR,1689533537
339,north side,19.35,-81.2,33.04,62,20,5.66,KY,1689533786
340,bandar lampung,-5.4254,105.258,23.36,95,49,2.02,ID,1689533786
341,ludwin,51.3461,22.9058,28.18,54,0,2.57,PL,1689533786
342,rovnoye,50.7765,46.0509,18.07,80,84,5.15,RU,1689533787
343,anadyr,64.75,177.4833,17.28,72,0,1.79,RU,1689533531
344,vernon,50.2581,-119.2691,33.5,23,7,1.54,CA,1689533787
345,smirnykh,49.75,142.8333,12.75,98,100,1.14,RU,1689533787
346,kiffa,16.6166,-11.4045,36.9,34,100,4.76,MR,1689533787
347,beroroha,-21.6667,45.1667,23.11,33,100,1.35,MG,1689533787
348,nabire,-3.3667,135.4833,24.58,91,94,2.47,ID,1689533788
349,cabo san lucas,22.8909,-109.9124,34.78,72,20,4.12,MX,1689533789
350,bako,5.7833,36.5667,20.02,66,90,1.28,ET,1689533789
351,kerikeri,-35.2268,173.9474,9.95,90,0,4.1,NZ,1689533699
352,scone,56.4194,-3.4051,16.7,76,69,2.68,GB,1689533790
353,birzai,56.2,24.75,19.57,94,100,5.0,LT,1689533790
354,mount isa,-20.7333,139.5,19.87,60,100,2.57,AU,1689533707
355,tofol,5.3248,163.0078,27.8,80,100,6.18,FM,1689533607
356,malindi,-3.2175,40.1191,25.09,78,20,5.14,KE,1689533790
357,lautoka,-17.6167,177.4667,18.92,88,20,2.06,FJ,1689533790
358,tavda,58.0425,65.2726,13.86,78,100,2.22,RU,1689533791
359,beichengqu,40.4394,113.1536,18.94,40,0,1.38,CN,1689533794
360,manokwari,-0.8667,134.0833,25.15,82,51,1.1,ID,1689533794
361,lerwick,60.1545,-1.1494,13.0,89,65,5.13,GB,1689533548
362,shanga,11.2106,4.5788,30.29,58,9,2.67,NG,1689533794
363,leh,34.1667,77.5833,14.72,76,98,2.03,IN,1689533434
364,port isabel,26.0734,-97.2086,37.05,44,0,5.66,US,1689533700
365,pangody,65.85,74.4859,11.21,63,17,3.96,RU,1689533791
366,dubbo,-32.25,148.6167,9.07,93,75,6.69,AU,1689533795
367,bonthe,7.5264,-12.505,25.26,86,100,3.64,SL,1689533562
368,shivrajpur,22.4167,73.65,25.93,85,93,5.21,IN,1689533795
369,sandnessjoen,66.0217,12.6316,16.06,88,75,4.63,NO,1689533795
370,paphos,34.7667,32.4167,28.88,58,0,1.54,CY,1689533795
371,broome,42.2506,-75.833,28.64,77,100,3.09,US,1689533795
372,azul,-36.777,-59.8585,9.48,49,6,6.12,AR,1689533796
373,jianguang,28.1938,115.7836,23.18,93,38,1.46,CN,1689533796
374,baikonur,45.6167,63.3167,29.18,28,0,3.67,KZ,1689533796
375,shalqar,47.8333,59.6,25.23,28,94,6.53,KZ,1689533796
376,vilyuysk,63.7553,121.6247,5.59,87,11,1.6,RU,1689533593
377,el colorado,-26.3081,-59.3729,20.07,47,60,2.59,AR,1689533797
378,ghat,24.9647,10.1728,33.54,9,17,3.37,LY,1689533797
379,gongju,36.4556,127.1247,24.14,99,100,1.37,KR,1689533797
380,la passe,45.5549,-0.8967,21.68,64,24,3.49,FR,1689533797
381,pahlgam,34.0333,75.3333,16.61,83,79,0.69,IN,1689533797
382,suntar,62.1444,117.6319,7.24,77,90,2.46,RU,1689533797
383,la ronge,55.1001,-105.2842,18.12,55,20,3.09,CA,1689533798
384,north shore,-36.8,174.75,14.11,72,0,4.02,NZ,1689533798
385,kirakira,-10.4544,161.9205,25.53,90,84,4.16,SB,1689533798
386,n'zeto,-7.2312,12.8666,21.02,90,2,2.87,AO,1689533798
387,colonia menno,-22.3667,-59.8167,19.13,46,100,3.36,PY,1689533799
388,montecanal,41.6297,-0.9387,31.97,43,0,5.14,ES,1689533800
389,carnarvon,-24.8667,113.6333,15.64,57,0,5.4,AU,1689533571
390,bodden town,19.2833,-81.25,33.0,62,20,5.66,KY,1689533801
391,zouerate,22.7187,-12.4521,36.68,16,0,6.08,MR,1689533801
392,plettenberg bay,-34.0527,23.3716,15.24,63,100,1.31,ZA,1689533801
393,nemuro,43.3236,145.575,12.92,94,100,2.64,JP,1689533654
394,kodiak,57.79,-152.4072,12.73,82,75,2.57,US,1689533562
395,kabompo,-13.5927,24.2008,14.75,41,0,2.69,ZM,1689533801
396,beau vallon,-20.4189,57.6953,23.13,88,75,5.14,MU,1689533547
397,amarante do maranhao,-5.5667,-46.7422,35.22,21,0,3.42,BR,1689533801
398,mata-utu,-13.2816,-176.1745,27.23,78,58,8.74,WF,1689533802
399,shakhtersk,48.0625,38.5167,17.22,69,8,2.41,UA,1689533802
400,iglino,54.8324,56.4126,16.05,96,95,3.25,RU,1689533802
401,kalmunai,7.4167,81.8167,26.61,82,100,4.04,LK,1689533711
402,gainsborough,53.3833,-0.7667,17.78,1,100,1.34,GB,1689533802
403,grand falls-windsor,48.9332,-55.6649,27.5,67,99,4.13,CA,1689533802
404,kabalo,-6.05,26.9167,27.83,35,27,1.83,CD,1689533802
405,turan,16.0678,108.2208,26.99,89,75,0.51,VN,1689533802
406,khandyga,62.6667,135.6,11.06,78,100,0.84,RU,1689533803
407,manggar,-2.8833,108.2667,27.56,77,37,5.76,ID,1689533803
408,sukhodol,53.9006,51.2117,16.3,91,100,4.65,RU,1689533803
409,qionghu,28.843,112.3522,25.67,68,99,4.1,CN,1689533803
410,ust-tsilma,65.441,52.1498,17.07,84,30,1.11,RU,1689533803
411,codrington,-38.2667,141.9667,5.41,93,3,4.68,AU,1689533740
412,bazarak,35.3129,69.5152,19.0,34,1,4.68,AF,1689533804
413,fuglafjordur,62.244,-6.814,9.26,91,100,9.09,FO,1689533804
414,soe,-9.8607,124.284,15.9,94,66,1.76,ID,1689533804
415,alo,7.4178,6.7371,25.51,89,42,0.99,NG,1689533563
416,leava,-14.3,-178.1667,26.47,79,93,12.91,WF,1689533804
417,port saint john's,-31.6229,29.5448,16.95,64,5,2.51,ZA,1689533804
418,yanam,16.7333,82.2167,27.18,74,100,2.29,IN,1689533783
419,mejit,10.2753,170.8646,27.77,77,98,4.83,MH,1689533583
420,kostopil',50.8784,26.4519,21.44,72,0,3.25,UA,1689533804
421,lundazi,-12.2929,33.1782,15.1,56,0,3.77,ZM,1689533805
422,kyzyl-kyya,40.2568,72.1279,26.4,27,72,2.99,KG,1689533805
423,goba,7.0167,39.9833,10.9,87,54,2.04,ET,1689533805
424,behshahr,36.6923,53.5526,26.97,69,0,2.13,IR,1689533805
425,lata,40.1629,-8.3327,20.04,57,45,3.36,PT,1689533805
426,acarau,-2.8856,-40.12,28.91,65,61,7.3,BR,1689533778
427,vadso,70.0744,29.7487,18.49,82,0,6.17,NO,1689533805
428,raipur,21.2333,81.6333,24.68,90,100,5.41,IN,1689533806
429,pauini,-7.7136,-66.9764,29.81,60,100,0.06,BR,1689533806
430,vikhorevka,56.1201,101.1636,18.77,96,100,1.78,RU,1689533806
431,cavelossim,15.1726,73.9419,27.99,85,100,4.38,IN,1689533806
432,macapa,0.0389,-51.0664,32.99,58,20,5.14,BR,1689533536
433,luderitz,-26.6481,15.1594,19.02,43,0,3.97,NA,1689533561
434,clarion,41.2148,-79.3853,28.43,69,48,4.5,US,1689533806
435,bonoua,5.2741,-3.595,26.79,87,100,2.07,CI,1689533806
436,mandalgovi,45.7625,106.2708,21.17,41,9,3.38,MN,1689533719
437,santa ana de yacuma,-13.75,-65.4333,31.97,45,40,2.57,BO,1689533807
438,kayangel,8.0823,134.7173,28.08,83,99,6.25,PW,1689533616
439,ylitornio,66.3089,23.6773,16.78,78,100,6.23,FI,1689533807
440,villa huidobro,-34.8383,-64.5869,12.55,31,76,3.36,AR,1689533807
441,yerofey pavlovich,53.9667,121.9667,16.68,70,55,1.0,RU,1689533807
442,zaozersk,69.4005,32.4476,13.38,86,100,1.37,RU,1689533807
443,levuka,50.1834,-105.4011,19.84,47,100,4.46,CA,1689533807
444,ferkessedougou,9.6,-5.2,23.99,88,58,2.47,CI,1689533807
445,vilyuchinsk,52.9306,158.4028,10.15,91,39,0.47,RU,1689533607
446,coahuayana de hidalgo,18.7,-103.6583,34.66,52,44,3.12,MX,1689533808
447,sretensk,52.2453,117.7093,16.42,70,6,0.87,RU,1689533808
448,gulbarga,17.3333,76.8333,24.77,76,100,6.59,IN,1689533644
449,miri,4.4148,114.0089,26.08,94,40,1.03,MY,1689533808
450,alapayevsk,57.8516,61.6963,14.49,94,66,1.0,RU,1689533808
451,el abiodh sidi cheikh,32.893,0.5484,33.03,6,0,4.69,DZ,1689533808
452,kone,-21.0595,164.8658,17.14,71,5,2.36,NC,1689533595
453,riohacha,11.5444,-72.9072,35.06,46,40,6.69,CO,1689533545
454,haapajarvi,63.75,25.3333,20.25,55,100,4.76,FI,1689533809
455,shenkursk,62.1091,42.896,18.96,67,87,1.61,RU,1689533809
456,pridonskoy,51.6841,39.0727,18.31,82,0,3.0,RU,1689533809
457,houghton,47.1219,-88.569,21.71,62,75,8.75,US,1689533809
458,hobyo,5.3505,48.5268,25.35,81,3,13.27,SO,1689533645
459,ancud,-41.8697,-73.8203,6.5,63,7,3.62,CL,1689533559
460,muravlenko,63.7898,74.523,11.61,63,12,0.64,RU,1689533809
461,antalaha,-14.9003,50.2788,20.04,87,38,3.34,MG,1689533708
462,cromwell,41.5951,-72.6454,26.08,96,75,3.6,US,1689533810
463,bayanhongor,46.7167,100.1167,12.88,56,5,1.86,MN,1689533810
464,bac lieu,9.285,105.7244,26.67,82,100,6.86,VN,1689533810
465,ouadda,8.0777,22.4007,21.61,91,17,0.93,CF,1689533810
466,novokhopersk,51.0969,41.6252,15.49,86,9,3.42,RU,1689533810
467,san fernando,15.0286,120.6898,24.85,92,100,3.63,PH,1689533810
468,abong mbang,3.9833,13.1833,23.11,88,100,0.0,CM,1689533810
469,omdurman,15.6445,32.4777,35.89,29,6,6.47,SD,1689533811
470,zinjibar,13.1287,45.3807,31.89,56,21,2.3,YE,1689533811
471,adam,22.3756,57.5233,33.64,39,100,3.52,OM,1689533811
472,vorgashor,67.5833,63.95,13.96,89,81,2.41,RU,1689533556
473,ust-nera,64.5667,143.2,9.96,78,12,3.86,RU,1689533533
474,oskarshamn,57.2645,16.4484,21.66,66,10,4.85,SE,1689533813
475,gangtok,27.3333,88.6167,18.81,97,100,0.27,IN,1689533813
476,sao vicente,-23.9631,-46.3919,29.1,44,0,2.06,BR,1689533814
477,dumai,1.6833,101.45,24.11,86,73,1.38,ID,1689533814
478,melfort,52.8667,-104.6177,16.07,51,73,2.06,CA,1689533814
479,chikwawa,-16.0335,34.8009,18.52,51,0,0.93,MW,1689533815
480,ipira,-12.1583,-39.7372,28.57,40,99,5.2,BR,1689533815
481,santana,-0.0583,-51.1817,33.1,58,20,5.14,BR,1689533767
482,wuhai,39.6647,106.8122,24.9,25,0,4.42,CN,1689533759
483,maibong,25.3,93.1667,23.79,98,100,1.25,IN,1689533815
484,bengkulu,-3.8004,102.2655,23.64,93,40,1.98,ID,1689533815
485,holualoa,19.6228,-155.9522,25.31,78,40,3.09,US,1689533780
486,jiuquan,39.7432,98.5174,25.68,21,0,3.57,CN,1689533816
487,peterhead,57.5058,-1.7981,15.25,75,100,7.01,GB,1689533816
488,duba,27.3513,35.6901,31.52,51,0,1.04,SA,1689533816
489,junction city,39.0286,-96.8314,26.92,65,20,4.12,US,1689533738
490,paracuru,-3.41,-39.0306,27.28,62,85,6.84,BR,1689533614
491,yemel'yanovo,56.1681,92.6767,19.45,63,0,2.0,RU,1689533817
492,meulaboh,4.1363,96.1285,24.44,91,87,1.9,ID,1689533817
493,kununurra,-15.7667,128.7333,24.99,41,5,6.17,AU,1689533817
494,alice springs,-23.7,133.8833,5.75,93,2,0.0,AU,1689533817
495,sola,-13.8833,167.55,25.37,94,100,1.54,VU,1689533818
496,kerouane,9.2667,-9.0167,22.92,93,100,0.47,GN,1689533818
497,orlov,58.5395,48.8917,13.58,85,0,2.79,RU,1689533818
498,walvis bay,-22.9575,14.5053,22.53,35,0,1.03,NA,1689533818
499,bokhan,53.153,103.7714,16.34,89,96,0.73,RU,1689533818
500,canton,23.1167,113.25,28.82,76,100,5.31,CN,1689533559
501,karaman,37.0833,33.25,21.02,36,0,5.35,TR,1689533819
502,khulm,36.6974,67.6983,32.05,13,0,3.94,AF,1689533819
503,moyale,3.5167,39.0584,21.91,55,97,1.93,KE,1689533819
504,yaren,-0.5472,166.916,28.46,75,99,4.43,NR,1689533820
505,ola,59.5833,151.2833,11.65,89,100,0.88,RU,1689533574
506,cody,44.5263,-109.0565,30.36,29,0,4.12,US,1689533820
507,khovd,48.0056,91.6419,22.33,33,0,3.21,MN,1689533597
508,hotan,37.0997,79.9269,31.7,14,82,3.51,CN,1689533820
509,vila franca do campo,37.7167,-25.4333,21.23,66,99,1.82,PT,1689533821
510,ternate,0.8,127.4,25.06,86,100,1.26,ID,1689533821
511,huilong,31.8111,121.655,27.74,95,100,4.64,CN,1689533605
512,auki,-8.7676,160.7034,25.08,90,90,1.72,SB,1689533821
513,katsuren-haebaru,26.3369,127.8719,28.21,88,75,7.2,JP,1689533821
514,thunder bay,48.4001,-89.3168,15.99,82,100,5.14,CA,1689533821
515,ciudad lazaro cardenas,17.9583,-102.2,31.71,67,56,3.33,MX,1689533601
516,paita,-5.0892,-81.1144,25.98,66,8,6.92,PE,1689533821
517,pacific grove,36.6177,-121.9166,25.77,79,0,4.02,US,1689533822
518,bubaque,11.2833,-15.8333,27.8,78,100,7.33,GW,1689533822
519,lyuban',52.7985,28.0048,20.09,67,9,3.68,BY,1689533822
520,sealy,29.7808,-96.1572,41.44,22,23,2.39,US,1689533822
521,vakarai,55.6035,23.8213,22.29,96,97,2.95,LT,1689533822
522,uryupinsk,50.8047,42.0138,15.98,85,21,3.56,RU,1689533823
523,sisimiut,66.9395,-53.6735,7.1,92,100,2.58,GL,1689533675
524,namtsy,62.7161,129.6658,6.69,80,11,1.35,RU,1689533823
525,petauke,-14.2426,31.3253,15.79,49,0,4.12,ZM,1689533823
526,maxixe,-23.8597,35.3472,19.91,88,20,0.0,MZ,1689533823
527,maceio,-9.6658,-35.7353,26.69,73,40,6.17,BR,1689533823
528,laibin,23.7,109.2667,28.67,56,100,5.7,CN,1689533824
529,usogorsk,63.4106,48.6872,19.26,70,86,1.41,RU,1689533682
530,island harbour,50.724,-1.2758,18.29,76,88,4.02,GB,1689533824
531,las terrenas,19.311,-69.5428,31.93,74,75,3.09,DO,1689533824
532,fisterra,42.9049,-9.2629,20.97,71,2,6.11,ES,1689533824
533,mugia,43.1041,-9.2179,21.06,68,0,4.43,ES,1689533824
534,greenville,35.6127,-77.3663,32.09,72,75,5.14,US,1689533577
535,berriane,32.8265,3.7669,38.47,7,0,5.01,DZ,1689533722
536,piti village,13.4626,144.6933,26.49,91,75,3.09,GU,1689533825
537,xiva,41.3783,60.3639,27.99,19,98,3.53,UZ,1689533825
538,trairi,-3.2778,-39.2689,28.59,65,70,6.33,BR,1689533825
539,peel,-33.3167,149.6333,6.29,97,16,1.5,AU,1689533825
540,kroya,-7.6331,109.2461,22.29,91,19,2.86,ID,1689533825
541,dwarka,22.2394,68.9678,28.59,77,100,6.21,IN,1689533548
542,moscow,55.7522,37.6156,19.75,66,24,1.77,RU,1689533324
543,nuku'alofa,-21.1333,-175.2,20.19,73,20,4.12,TO,1689533826
544,machico,32.7,-16.7667,23.4,64,40,6.69,PT,1689533826
545,colesberg,-30.72,25.0972,10.55,37,9,2.54,ZA,1689533826
546,sanctuary point,-35.1114,150.629,8.88,90,22,1.86,AU,1689533826
547,diebougou,10.9667,-3.25,25.31,80,70,2.4,BF,1689533827
548,arar,30.9753,41.0381,40.01,5,0,4.12,SA,1689533827
549,el gouna,27.3942,33.6782,35.05,32,0,2.07,EG,1689533827
550,timaru,-44.4,171.25,5.6,80,8,2.24,NZ,1689533828
551,revda,56.801,59.9303,11.77,97,59,1.96,RU,1689533828
552,cabedelo,-6.9811,-34.8339,26.37,77,4,6.5,BR,1689533820
553,kavieng,-2.5744,150.7967,27.76,76,97,2.53,PG,1689533716
554,watampone,-4.5386,120.3279,23.81,85,95,2.18,ID,1689533828
555,tazacorte,28.629,-17.9293,24.54,70,75,7.72,ES,1689533795
556,benjamin constant,-4.3831,-70.0311,28.07,74,75,2.06,BR,1689533604
557,darwin,-12.4611,130.8418,24.99,88,100,1.54,AU,1689533736
558,zemio,5.0314,25.1361,23.66,75,17,0.57,CF,1689533829
559,kalianget,-7.05,113.9333,25.42,75,49,4.5,ID,1689533829
560,pisco,-13.7,-76.2167,21.03,68,100,4.12,PE,1689533576
561,boa vista,2.8197,-60.6733,31.99,55,40,3.09,BR,1689533829
562,kourou,5.1552,-52.6478,28.03,69,4,4.94,GF,1689533646
563,luanco,43.6152,-5.7934,20.01,69,29,1.26,ES,1689533829
564,neryungri,56.6709,124.6491,11.44,85,10,0.22,RU,1689533829
565,muswellbrook,-32.2667,150.9,11.29,97,78,0.84,AU,1689533830
566,delijan,33.9905,50.6838,31.8,7,0,3.01,IR,1689533830
567,jining,35.405,116.5814,24.01,72,0,2.48,CN,1689533830
568,cochrane,51.1834,-114.4687,24.95,59,0,3.6,CA,1689533801
569,ouargla,31.9493,5.325,42.04,7,0,4.63,DZ,1689533830
570,beira,-19.8436,34.8389,18.05,88,20,2.24,MZ,1689533830
571,rockland,41.1668,-74.0496,26.05,93,100,3.05,US,1689533831
572,yelizovo,53.1873,158.3805,10.08,100,75,1.0,RU,1689533831
573,castillos,-34.1667,-53.8333,11.31,55,12,6.03,UY,1689533831
574,reyes,-14.3167,-67.3833,30.59,45,31,1.87,BO,1689533831
